[
   {
      "address": "Маршал Тито бр. 107, Берово",
      "email": "",
      "id": 4285,
      "image": "https://www.stb.com.mk/media/1019/berovobranch11018_berovo_atm.jpg",
      "lat": "41.7077",
      "lon": "22.8564",
      "manager": "",
      "name": "Филијала Берово",
      "phone": "",
      "weekend": "",
      "working": "",
      "city": "Берово"
   },
   {
      "address": "Васко Карангелески бб Реонско пазариште, Битола",
      "email": "",
      "id": 4250,
      "image": "https://www.stb.com.mk/media/1020/bitola-reonskopazariste52248_bitola_vero_atm.jpeg",
      "lat": "41.027",
      "lon": "21.3138",
      "manager": "",
      "name": "Битола - Реонско пазариште",
      "phone": "",
      "weekend": "",
      "working": "",
      "city": "Битола"
   },
   {
      "address": "ул. Партизанска бб, Битола",
      "email": "",
      "id": 4246,
      "image": "https://www.stb.com.mk/media/1118/vasidoraprilepno_image.jpg",
      "lat": "41.0246",
      "lon": "21.3193",
      "manager": "",
      "name": "Битола Партизанска",
      "phone": "",
      "weekend": "",
      "working": "",
      "city": "Битола"
   },
   {
      "address": "ул. Карпош, Битола",
      "email": "",
      "id": 4247,
      "image": "https://www.stb.com.mk/media/1118/vasidoraprilepno_image.jpg",
      "lat": "41.027176",
      "lon": "21.340803",
      "manager": "",
      "name": "Битола - Св.Тома",
      "phone": "",
      "weekend": "",
      "working": "",
      "city": "Битола"
   },
   {
      "address": "Широк сокак 62, Битола",
      "email": "",
      "id": 4249,
      "image": "https://www.stb.com.mk/media/1021/bitolabranch33789_bitola_shiroksokak_atm.jpeg",
      "lat": "41.0273",
      "lon": "21.3364",
      "manager": "",
      "name": "Филијала Битола",
      "phone": "",
      "weekend": "",
      "working": "",
      "city": "Битола"
   },
   {
      "address": "Маршал Тито бр. 85, Богданци",
      "email": "",
      "id": 4275,
      "image": "https://www.stb.com.mk/media/1079/no_image.jpg",
      "lat": "41.2034",
      "lon": "22.5756",
      "manager": "",
      "name": "Филијала Богданци",
      "phone": "",
      "weekend": "",
      "working": "",
      "city": "Богданци"
   },
   {
      "address": "6 Ноември бр. 42, Валандово",
      "email": "",
      "id": 4281,
      "image": "https://www.stb.com.mk/media/1117/valandovobranch29817_valandovo_atm.jpg",
      "lat": "41.3169",
      "lon": "22.561",
      "manager": "",
      "name": "Филијала Валандово",
      "phone": "",
      "weekend": "",
      "working": "",
      "city": "Валандово"
   },
   {
      "address": "Благој Ѓорев бр. 33, Велес",
      "email": "",
      "id": 4316,
      "image": "https://www.stb.com.mk/media/1119/veles-blagojgjorev1f9ce921bb6e41827efe0db50939c6eb.jpg",
      "lat": "41.7172",
      "lon": "21.7749",
      "manager": "",
      "name": "Велес - Благој Ѓорев",
      "phone": "",
      "weekend": "",
      "working": "",
      "city": "Велес"
   },
   {
      "address": "Благој Ѓорев бб, Велес",
      "email": "",
      "id": 4315,
      "image": "https://www.stb.com.mk/media/1120/veles-novanaselba42ce39d5b281f98d4ac211adcb5a70a9.jpg",
      "lat": "41.7153",
      "lon": "21.7689",
      "manager": "",
      "name": "Велес - Нова Населба",
      "phone": "",
      "weekend": "",
      "working": "",
      "city": "Велес"
   },
   {
      "address": "ул. Благој Ѓорев бр.166, Велес",
      "email": "",
      "id": 4318,
      "image": "https://www.stb.com.mk/media/1079/no_image.jpg",
      "lat": "41.7145",
      "lon": "21.7658",
      "manager": "",
      "name": "Жито Дооел",
      "phone": "",
      "weekend": "",
      "working": "",
      "city": "Велес"
   },
   {
      "address": "8-ми Септември бр. 67, Велес",
      "email": "",
      "id": 4317,
      "image": "https://www.stb.com.mk/media/1121/velesbranch20d7b7217d925f9da386dfdfd0a1764c.jpg",
      "lat": "41.7148",
      "lon": "21.784",
      "manager": "",
      "name": "Филијала Велес",
      "phone": "",
      "weekend": "",
      "working": "",
      "city": "Велес"
   },
   {
      "address": "'Оска - Пром' - Страшо Пинџур бр.3, Виница",
      "email": "",
      "id": 4302,
      "image": "https://www.stb.com.mk/media/1125/vinica-oskaprom46465fc223b4e2c01ca71b3df2e60a0d.jpg",
      "lat": "41.8862",
      "lon": "22.5119",
      "manager": "",
      "name": "Виница - Оска Пром",
      "phone": "",
      "weekend": "",
      "working": "",
      "city": "Виница"
   },
   {
      "address": "Маршал Тито бр. 6, Виница",
      "email": "",
      "id": 4301,
      "image": "https://www.stb.com.mk/media/1126/vinicabranch26267d7b72dbf67ce2d3b109790a5214.jpg",
      "lat": "41.8824",
      "lon": "22.5049",
      "manager": "",
      "name": "Филијала Виница ",
      "phone": "",
      "weekend": "",
      "working": "",
      "city": "Виница"
   },
   {
      "address": "Гевгелиски партизански одреди зграда 1, влез 16, Гевгелија",
      "email": "",
      "id": 4262,
      "image": "https://www.stb.com.mk/media/1039/gevgelija-gevgeliskipartizanskiodredi75809_gevgelija_plostad.jpg",
      "lat": "41.1401",
      "lon": "22.5042",
      "manager": "",
      "name": "Гевгелија - Гевгелиски партизански одреди",
      "phone": "",
      "weekend": "",
      "working": "",
      "city": "Гевгелија"
   },
   {
      "address": "ул. Талја Бикова бб, Гевгелија",
      "email": "",
      "id": 4259,
      "image": "https://www.stb.com.mk/media/1079/no_image.jpg",
      "lat": "41.1432",
      "lon": "22.5057",
      "manager": "",
      "name": "Солун 53 маркет",
      "phone": "",
      "weekend": "",
      "working": "",
      "city": "Гевгелија"
   },
   {
      "address": "ул. 7-ми Ноември бр 19А, Гевгелија",
      "email": "",
      "id": 4261,
      "image": "https://www.stb.com.mk/media/1040/gevgelijabranch4904e739724d6fb6c2fcee594d0f7f0e.jpg",
      "lat": "41.1403",
      "lon": "22.5016",
      "manager": "",
      "name": "Филијала Гевгелија ",
      "phone": "",
      "weekend": "",
      "working": "",
      "city": "Гевгелија"
   },
   {
      "address": "Граничен премин Богородица бр.13, Гевгелија",
      "email": "",
      "id": 4260,
      "image": "https://www.stb.com.mk/media/1079/no_image.jpg",
      "lat": "41.1352",
      "lon": "22.5455",
      "manager": "",
      "name": "Хотел Фламинго",
      "phone": "",
      "weekend": "",
      "working": "",
      "city": "Гевгелија"
   },
   {
      "address": "Борче Јовановски 64, Гостивар",
      "email": "",
      "id": 9102,
      "image": "",
      "lat": "41.792963",
      "lon": "20.909741",
      "manager": "",
      "name": "Гостивар - Ризванче 2 Аптека",
      "phone": "",
      "weekend": "",
      "working": "",
      "city": "Гостивар"
   },
   {
      "address": "ул. Борис Кидрич бб, Гостивар",
      "email": "",
      "id": 4277,
      "image": "https://www.stb.com.mk/media/1042/gostivar-hipermarketmontenegroc02a0fdc4ec2a1e1383ce1625945c762.jpg",
      "lat": "41.8046",
      "lon": "20.9142",
      "manager": "",
      "name": "Гостивар - Хипермаркет Монтенегро",
      "phone": "",
      "weekend": "",
      "working": "",
      "city": "Гостивар"
   },
   {
      "address": "Бул. Гоце Делчев",
      "email": "",
      "id": 8920,
      "image": "",
      "lat": "41.796282",
      "lon": "20.910522",
      "manager": "",
      "name": "Гостивар Мега Трејд",
      "phone": "",
      "weekend": "",
      "working": "",
      "city": "Делчев"
   },
   {
      "address": "Мајор Чеде Филиповски бр.156, Гостивар",
      "email": "",
      "id": 4280,
      "image": "",
      "lat": "41.792796",
      "lon": "20.906503",
      "manager": "",
      "name": "Филијала Гостивар ",
      "phone": "",
      "weekend": "",
      "working": "",
      "city": "Гостивар"
   },
   {
      "address": "Маршал Тито бр. 24, Градско",
      "email": "",
      "id": 4276,
      "image": "https://www.stb.com.mk/media/1046/gradsko611_veles_gradsko.jpg",
      "lat": "41.5804",
      "lon": "21.9419",
      "manager": "",
      "name": "Градско",
      "phone": "",
      "weekend": "",
      "working": "",
      "city": "Градско"
   },
   {
      "address": "ул. 8ми Септември бр.28, Дебар",
      "email": "",
      "id": 4258,
      "image": "https://www.stb.com.mk/media/1079/no_image.jpg",
      "lat": "41.521141",
      "lon": "20.528541",
      "manager": "",
      "name": "Дебар",
      "phone": "",
      "weekend": "",
      "working": "",
      "city": "Дебар"
   },
   {
      "address": "Вељко Влаховиќ бр. 146, Дебар",
      "email": "",
      "id": 4257,
      "image": "https://www.stb.com.mk/media/1033/debarbranch9b871301b79d9d49ce6c1dbee511d4ae.jpg",
      "lat": "41.522",
      "lon": "20.5267",
      "manager": "",
      "name": "Филијала Дебар ",
      "phone": "",
      "weekend": "",
      "working": "",
      "city": "Дебар"
   },
   {
      "address": "Орце Николов бр. 2, Делчево",
      "email": "",
      "id": 4307,
      "image": "https://www.stb.com.mk/media/1034/delcevobranch62551_delcevo_atm.jpg",
      "lat": "41.9674",
      "lon": "22.7746",
      "manager": "",
      "name": "Филијала Делчево",
      "phone": "",
      "weekend": "",
      "working": "",
      "city": "Делчево"
   },
   {
      "address": "Маршал Тито бр. 20, Демир Капија",
      "email": "",
      "id": 4266,
      "image": "https://www.stb.com.mk/media/1036/demirkapija26431_negotino_demir_kapija.jpg",
      "lat": "41.4124",
      "lon": "22.2413",
      "manager": "",
      "name": "Демир Капија",
      "phone": "",
      "weekend": "",
      "working": "",
      "city": "Капија"
   },
   {
      "address": "Битолска бр. 52, Демир Хисар",
      "email": "",
      "id": 4251,
      "image": "https://www.stb.com.mk/media/1035/demirhisared05aff7f28490973a56b44df636c252.jpg",
      "lat": "41.2194",
      "lon": "21.204",
      "manager": "",
      "name": "Демир Хисар",
      "phone": "",
      "weekend": "",
      "working": "",
      "city": "Хисар"
   },
   {
      "address": "Маршал Тито зграда 2, влез 3, приземје, Дојран",
      "email": "",
      "id": 4273,
      "image": "https://www.stb.com.mk/media/1105/stardojran30934_stardojran_atm.jpg",
      "lat": "41.1848",
      "lon": "22.7217",
      "manager": "",
      "name": "Стар Дојран",
      "phone": "",
      "weekend": "",
      "working": "",
      "city": "Дојран"
   },
   {
      "address": "Б. Петров бр. 8, Злетово",
      "email": "",
      "id": 4308,
      "image": "https://www.stb.com.mk/media/1128/zletovo99b5c6f066b70f3e7fac9bfd35b91d90.jpg",
      "lat": "41.9882",
      "lon": "22.2358",
      "manager": "",
      "name": "Злетово",
      "phone": "",
      "weekend": "",
      "working": "",
      "city": "Злетово"
   },
   {
      "address": "Илинденска 105а, Кавадарци",
      "email": "",
      "id": 4265,
      "image": "https://www.stb.com.mk/media/1055/kavadarciilindenska32954_kavadarci_ilindenska_105a.jpg",
      "lat": "41.4373",
      "lon": "22.0106",
      "manager": "",
      "name": "Кавадарци Илинденска",
      "phone": "",
      "weekend": "",
      "working": "",
      "city": "Кавадарци"
   },
   {
      "address": "ул. Охридска бр.1, Кавадарци",
      "email": "",
      "id": 4264,
      "image": "https://www.stb.com.mk/media/1079/no_image.jpg",
      "lat": "41.4392",
      "lon": "22.0096",
      "manager": "",
      "name": "Кам",
      "phone": "",
      "weekend": "",
      "working": "",
      "city": "Кавадарци"
   },
   {
      "address": "Илинденска бр. 1, Кавадарци",
      "email": "",
      "id": 4263,
      "image": "https://www.stb.com.mk/media/1054/kavadarcibranch7728_kavadarci_filijala_ilindenska_br_1.jpg",
      "lat": "41.4338",
      "lon": "22.0117",
      "manager": "",
      "name": "Филијала Кавадарци ",
      "phone": "",
      "weekend": "",
      "working": "",
      "city": "Кавадарци"
   },
   {
      "address": "Ул. Индустриска бр. 16, Кичево",
      "email": "",
      "id": 4271,
      "image": "https://www.stb.com.mk/media/1015/atva-kicevo123f0cfab811309d7752f8a8d6faaf6f.jpg",
      "lat": "41.5116",
      "lon": "20.9512",
      "manager": "",
      "name": "АТВА - Кичево",
      "phone": "",
      "weekend": "",
      "working": "",
      "city": "Кичево"
   },
   {
      "address": "Ул. Булевар Ослободување бб, Ст. зграда Ложионица, Кичево",
      "email": "",
      "id": 4272,
      "image": "https://www.stb.com.mk/media/1056/kicevo-stzgradalozionicaf9cdb68823a8626d282272bef25fac37.jpg",
      "lat": "41.5126",
      "lon": "20.9542",
      "manager": "",
      "name": "Кичево - Ст. зграда Ложионица",
      "phone": "",
      "weekend": "",
      "working": "",
      "city": "Кичево"
   },
   {
      "address": "Бул. Ослободување бр. 77, Кичево",
      "email": "",
      "id": 4270,
      "image": "https://www.stb.com.mk/media/1057/kicevobranch4f55b0ccc9088e038603082faeddfbde.jpg",
      "lat": "41.5126",
      "lon": "20.954",
      "manager": "",
      "name": "Филијала Кичево ",
      "phone": "",
      "weekend": "",
      "working": "",
      "city": "Кичево"
   },
   {
      "address": "ул. Никола Карев, Кочани",
      "email": "",
      "id": 4303,
      "image": "https://www.stb.com.mk/media/1060/kocani-petrolstationmakpetrolda4a6a902ad6daee8bb19e7ec8352f0c.jpg",
      "lat": "41.9138",
      "lon": "22.4119",
      "manager": "",
      "name": "Кочани - Бензинска пумпа Макпетрол",
      "phone": "",
      "weekend": "",
      "working": "",
      "city": "Кочани"
   },
   {
      "address": "Маршал Тито бр. 44, Кочани",
      "email": "",
      "id": 4304,
      "image": "https://www.stb.com.mk/media/1061/kocanibranche895137e89156172f30e3f542682fc71.jpg",
      "lat": "41.9185",
      "lon": "22.4105",
      "manager": "",
      "name": "Филијала Кочани ",
      "phone": "",
      "weekend": "",
      "working": "",
      "city": "Кочани"
   },
   {
      "address": "Гоце Делчев 1, Кратово",
      "email": "",
      "id": 4309,
      "image": "https://www.stb.com.mk/media/1062/kratovocadb2fc2047194d40acf9c369ed4e752.jpg",
      "lat": "42.0784",
      "lon": "22.1757",
      "manager": "",
      "name": "Кратово",
      "phone": "",
      "weekend": "",
      "working": "",
      "city": "Кратово"
   },
   {
      "address": "Јоаким Осоговски бр. 183, Крива Паланка",
      "email": "",
      "id": 4314,
      "image": "https://www.stb.com.mk/media/1064/krivapalankafilijala8dabdd2322556e1fd5cade57f4aa9359.jpg",
      "lat": "42.2057",
      "lon": "22.3344",
      "manager": "",
      "name": "Филијала Крива Паланкa ",
      "phone": "",
      "weekend": "",
      "working": "",
      "city": "Паланка"
   },
   {
      "address": "ул. Благој Целев бр. 3, Крушево",
      "email": "",
      "id": 4256,
      "image": "https://www.stb.com.mk/media/1065/krusevobranch8247_krusevo_atm.jpg",
      "lat": "41.3678",
      "lon": "21.2489",
      "manager": "",
      "name": "Филијала Крушево ",
      "phone": "",
      "weekend": "",
      "working": "",
      "city": "Крушево"
   },
   {
      "address": "ул. 3та Македонска Ударна Бригада бр.36А, Куманово",
      "email": "",
      "id": 4311,
      "image": "https://www.stb.com.mk/media/1079/no_image.jpg",
      "lat": "42.1325",
      "lon": "21.7167",
      "manager": "",
      "name": "Куманово 2",
      "phone": "",
      "weekend": "",
      "working": "",
      "city": "Куманово"
   },
   {
      "address": "ул. 'Октомвриска Револуција', Куманово",
      "email": "",
      "id": 4312,
      "image": "https://www.stb.com.mk/media/1116/tushmarketkumanovoe552f74fb1ac0ded27e834dad28f51b6.jpg",
      "lat": "42.1347",
      "lon": "21.729",
      "manager": "",
      "name": "Туш Маркет Куманово",
      "phone": "",
      "weekend": "",
      "working": "",
      "city": "Куманово"
   },
   {
      "address": "Партизанска бр. 2, Куманово",
      "email": "",
      "id": 4310,
      "image": "https://www.stb.com.mk/media/1066/kumanovobranch2872d57bd0b5ff585f7a6dfb5becdc12.jpg",
      "lat": "42.1357",
      "lon": "21.7207",
      "manager": "",
      "name": "Филијала Куманово",
      "phone": "",
      "weekend": "",
      "working": "",
      "city": "Куманово"
   },
   {
      "address": "ул. Маршал Титo бр. 7, Македонска Каменица",
      "email": "",
      "id": 4313,
      "image": "https://www.stb.com.mk/media/1071/makedonskakamenicabranch71086_mak_kamenica_atm.jpg",
      "lat": "42.0223",
      "lon": "22.5901",
      "manager": "",
      "name": "Филијала Македонска Каменица",
      "phone": "",
      "weekend": "",
      "working": "",
      "city": "Каменица"
   },
   {
      "address": "ул. Маршал Тито бр. 154, Неготино",
      "email": "",
      "id": 4268,
      "image": "https://www.stb.com.mk/media/1077/negotino796b9d8f9a8878b28b701b8859afdd19.jpg",
      "lat": "41.4864",
      "lon": "22.0913",
      "manager": "",
      "name": "Неготино",
      "phone": "",
      "weekend": "",
      "working": "",
      "city": "Неготино"
   },
   {
      "address": "Јане Сандански бр. 2, Неготино",
      "email": "",
      "id": 4267,
      "image": "https://www.stb.com.mk/media/1078/negotinobranch72ecaca4fe67ba95ca91dff7497f738d.jpg",
      "lat": "41.4838",
      "lon": "22.0904",
      "manager": "",
      "name": "Филијала Неготино ",
      "phone": "",
      "weekend": "",
      "working": "",
      "city": "Неготино"
   },
   {
      "address": "Маршал Тито бр. 49, Ново Село",
      "email": "",
      "id": 4274,
      "image": "https://www.stb.com.mk/media/1081/novoselobranch48736_novo_selo_atm.jpg",
      "lat": "41.4143",
      "lon": "22.8793",
      "manager": "",
      "name": "Филијала Ново Село ",
      "phone": "",
      "weekend": "",
      "working": "",
      "city": "Село"
   },
   {
      "address": "ул. 7-ми Ноември бр.286, Охрид",
      "email": "",
      "id": 8982,
      "image": "",
      "lat": "41.122672",
      "lon": "20.810634",
      "manager": "",
      "name": "Охрид, Техномаркет 171",
      "phone": "",
      "weekend": "",
      "working": "",
      "city": "Охрид"
   },
   {
      "address": "ул. Моша Пијаде бб, Охрид",
      "email": "",
      "id": 4241,
      "image": "https://www.stb.com.mk/media/1085/perfumeshopjuvena7b09869e9bbfe37430bd5609648db123.jpg",
      "lat": "41.1147",
      "lon": "20.8003",
      "manager": "",
      "name": "Парфимерија Јувена",
      "phone": "",
      "weekend": "",
      "working": "",
      "city": "Охрид"
   },
   {
      "address": "ул. „Гоце Делчев“ бб, Охрид",
      "email": "",
      "id": 4240,
      "image": "https://www.stb.com.mk/media/1118/vasidoraprilepno_image.jpg",
      "lat": "41.1355",
      "lon": "20.7623",
      "manager": "",
      "name": "Св. Еразмо",
      "phone": "",
      "weekend": "",
      "working": "",
      "city": "Охрид"
   },
   {
      "address": "ул. Кузман Јосифовски Питу бр. 3, Охрид",
      "email": "",
      "id": 4238,
      "image": "https://www.stb.com.mk/media/1083/ohridbranchdb612fc6916efb3a764cab0aaa0f9552.jpg",
      "lat": "41.1121",
      "lon": "20.8022",
      "manager": "",
      "name": "Филијала Охрид ",
      "phone": "",
      "weekend": "",
      "working": "",
      "city": "Охрид"
   },
   {
      "address": "бул. Туристичка, ламела 3, деловен простор 2, Охрид",
      "email": "",
      "id": 4239,
      "image": "https://www.stb.com.mk/media/1082/ohrid-turistickabranch415be83bb629a8e471ceac3fb3cee374.jpg",
      "lat": "41.1169",
      "lon": "20.8031",
      "manager": "",
      "name": "Филијала Туристичка Охрид",
      "phone": "",
      "weekend": "",
      "working": "",
      "city": "Охрид"
   },
   {
      "address": "ул. Борис Кидрич бр. 6Г, Пехчево",
      "email": "",
      "id": 4300,
      "image": "https://www.stb.com.mk/media/1084/pehcevobranch70125_pehcevo_atm.jpg",
      "lat": "41.762",
      "lon": "22.8853",
      "manager": "",
      "name": "Филијала Пехчево ",
      "phone": "",
      "weekend": "",
      "working": "",
      "city": "Пехчево"
   },
   {
      "address": "ул. 'Борка Талески' бр. 3, Прилеп",
      "email": "",
      "id": 4253,
      "image": "https://www.stb.com.mk/media/1014/apothecaryherbaprilep11786fcd89ead4f656e000b6804afe26.jpg",
      "lat": "41.3521",
      "lon": "21.562",
      "manager": "",
      "name": "Аптека Херба Прилеп",
      "phone": "",
      "weekend": "",
      "working": "",
      "city": "Прилеп"
   },
   {
      "address": "ул. Леце Котески, Прилеп",
      "email": "",
      "id": 4254,
      "image": "https://www.stb.com.mk/media/1118/vasidoraprilepno_image.jpg",
      "lat": "41.3437",
      "lon": "21.5359",
      "manager": "",
      "name": "Васидора Прилеп",
      "phone": "",
      "weekend": "",
      "working": "",
      "city": "Прилеп"
   },
   {
      "address": "ул. Кузман Јосифовски  б.б  Прилеп",
      "email": "",
      "id": 4255,
      "image": "https://www.stb.com.mk/media/1079/no_image.jpg",
      "lat": "41.3505",
      "lon": "21.5424",
      "manager": "",
      "name": "Прилеп Точила",
      "phone": "",
      "weekend": "",
      "working": "",
      "city": "Прилеп"
   },
   {
      "address": "ул. 'Јоска Јорданоски' бр. 1 , Прилеп",
      "email": "",
      "id": 4252,
      "image": "https://www.stb.com.mk/media/1088/prilepsub-branchb78593272c421c23fd4b2c8f0564610a.jpg",
      "lat": "41.3523",
      "lon": "21.5676",
      "manager": "",
      "name": "Прилеп Центар",
      "phone": "",
      "weekend": "",
      "working": "",
      "city": "Прилеп"
   },
   {
      "address": "ул. Јоаким Стојковски бр. 69, Пробиштип",
      "email": "",
      "id": 4306,
      "image": "https://www.stb.com.mk/media/1079/no_image.jpg",
      "lat": "41.997",
      "lon": "22.1845",
      "manager": "",
      "name": "Пробиштип",
      "phone": "",
      "weekend": "",
      "working": "",
      "city": "Пробиштип"
   },
   {
      "address": "ул. Јаким Спиров бр. 3, Пробиштип",
      "email": "",
      "id": 4305,
      "image": "https://www.stb.com.mk/media/1089/probistipbranch43965_probistip_filijala.jpg",
      "lat": "41.9998",
      "lon": "22.1796",
      "manager": "",
      "name": "Филијала Пробиштип ",
      "phone": "",
      "weekend": "",
      "working": "",
      "city": "Пробиштип"
   },
   {
      "address": "ул. 22 Октомври бр. 42а, Радовиш",
      "email": "",
      "id": 4286,
      "image": "https://www.stb.com.mk/media/1093/img_20190530_134253.jpg",
      "lat": "41.6372",
      "lon": "22.4626",
      "manager": "",
      "name": "Филијала Радовиш ",
      "phone": "",
      "weekend": "",
      "working": "",
      "city": "Радовиш"
   },
   {
      "address": "ул. Маршал Тито бр. 15, Ресен",
      "email": "",
      "id": 4245,
      "image": "https://www.stb.com.mk/media/1096/resenbranch22227_resen_filijala_bankomat.jpg",
      "lat": "41.0904",
      "lon": "21.0129",
      "manager": "",
      "name": "Филијала Ресен ",
      "phone": "",
      "weekend": "",
      "working": "",
      "city": "Ресен"
   },
   {
      "address": "ул. Пролетерска, Росоман",
      "email": "",
      "id": 4269,
      "image": "https://www.stb.com.mk/media/1097/rosomanadd2ab77963f66786cf56209eed88b66.jpg",
      "lat": "41.5166",
      "lon": "21.9475",
      "manager": "",
      "name": "Росоман ",
      "phone": "",
      "weekend": "",
      "working": "",
      "city": "Росоман"
   },
   {
      "address": "ул. Маршал Тито бр. 1, Свети Николе",
      "email": "",
      "id": 4293,
      "image": "https://www.stb.com.mk/media/1110/svetinikolebranch5063b5e9198a2bdf51e97e4adb6614ed.jpg",
      "lat": "41.8634",
      "lon": "21.9419",
      "manager": "",
      "name": "Филијала Свети Николе ",
      "phone": "",
      "weekend": "",
      "working": "",
      "city": "Николе"
   },
   {
      "address": "Кеј 13-ти Ноември, Скопје",
      "email": "",
      "id": 4181,
      "image": "https://www.stb.com.mk/media/1047/i-bankstorebranch4e0657035f06bd9c9c653e836fd6211c.jpg",
      "lat": "41.9959",
      "lon": "21.4332",
      "manager": "",
      "name": "i-bank store",
      "phone": "",
      "weekend": "",
      "working": "",
      "city": "Скопје"
   },
   {
      "address": "бул. Февруарски поход бр.46, Скопје",
      "email": "",
      "id": 4195,
      "image": "https://www.stb.com.mk/media/1079/no_image.jpg",
      "lat": "41.9827",
      "lon": "21.4816",
      "manager": "",
      "name": "Ramstore Ново Лисиче",
      "phone": "",
      "weekend": "",
      "working": "",
      "city": "Скопје"
   },
   {
      "address": "ул. Шекспирова,Скопје",
      "email": "",
      "id": 4177,
      "image": "https://www.stb.com.mk/media/1075/markettinexdramski670751fb246a4654929bcf71de4c084f.jpg",
      "lat": "42.0024",
      "lon": "21.4078",
      "manager": "",
      "name": "Tинекс - Драмски",
      "phone": "",
      "weekend": "",
      "working": "",
      "city": "Шекспирова,Скопје"
   },
   {
      "address": "ул. Никола Карев бр.20, Скопје",
      "email": "",
      "id": 4212,
      "image": "https://www.stb.com.mk/media/1025/busstationa582f110454d9e416d8f84f59f2f7c52.jpg",
      "lat": "41.991",
      "lon": "21.4454",
      "manager": "",
      "name": "Автобуска станица",
      "phone": "",
      "weekend": "",
      "working": "",
      "city": "Скопје"
   },
   {
      "address": "Борис Трајковски 1",
      "email": "",
      "id": 4191,
      "image": "https://www.stb.com.mk/media/1079/no_image.jpg",
      "lat": "41.985479",
      "lon": "21.437879",
      "manager": "",
      "name": "Адора Флет Ирон",
      "phone": "",
      "weekend": "",
      "working": "",
      "city": "1"
   },
   {
      "address": "Козле, Скопје",
      "email": "",
      "id": 4221,
      "image": "https://www.stb.com.mk/media/1074/makpetrolkozle4d924de893000c598495231093a77b31.jpg",
      "lat": "41.9945",
      "lon": "21.3959",
      "manager": "",
      "name": "Бензинска пумпа Макпетрол Козле",
      "phone": "",
      "weekend": "",
      "working": "",
      "city": "Скопје"
   },
   {
      "address": "Бул. Јане Сандански 111, Скопје",
      "email": "",
      "id": 4218,
      "image": "https://www.stb.com.mk/media/1122/vero1cfea560508b4eac35ce388038c8dd84b.jpg",
      "lat": "41.9847",
      "lon": "21.4686",
      "manager": "",
      "name": "ВЕРО 1",
      "phone": "",
      "weekend": "",
      "working": "",
      "city": "Скопје"
   },
   {
      "address": "ул. Џон Кенеди бб, Скопје",
      "email": "",
      "id": 4178,
      "image": "https://www.stb.com.mk/media/1118/vasidoraprilepno_image.jpg",
      "lat": "42.0142",
      "lon": "21.4449",
      "manager": "",
      "name": "ВЕРО Чаир",
      "phone": "",
      "weekend": "",
      "working": "",
      "city": "Скопје"
   },
   {
      "address": "ул. 100 бр.20В Скопје",
      "email": "",
      "id": 4223,
      "image": "https://www.stb.com.mk/media/1118/vasidoraprilepno_image.jpg",
      "lat": "42.0375",
      "lon": "21.3492",
      "manager": "",
      "name": "Волково",
      "phone": "",
      "weekend": "",
      "working": "",
      "city": "Скопје"
   },
   {
      "address": "Бул.Крсте Мисирков бб, Скопје",
      "email": "",
      "id": 4211,
      "image": "https://www.stb.com.mk/media/1038/facultyofeconomicsukim791135fcb3dec21a0061f9c30545f1e7.jpg",
      "lat": "42.0005",
      "lon": "21.4433",
      "manager": "",
      "name": "Економски Факултет УКИМ",
      "phone": "",
      "weekend": "",
      "working": "",
      "city": "Скопје"
   },
   {
      "address": "ул. Филип Филиповиќ бр. 2а",
      "email": "",
      "id": 6653,
      "image": "https://www.stb.com.mk/media/1013/amsmbuilding-strugano_image.jpg",
      "lat": "42.010788",
      "lon": "21.460768",
      "manager": "",
      "name": "Железара - Жито Маркет",
      "phone": "",
      "weekend": "",
      "working": "",
      "city": "2а"
   },
   {
      "address": "Бул. Партизански одреди бр.13/1, Скопје",
      "email": "",
      "id": 4183,
      "image": "https://www.stb.com.mk/media/1079/no_image.jpg",
      "lat": "41.9977",
      "lon": "21.4265",
      "manager": "",
      "name": "ИТЦ Травел",
      "phone": "",
      "weekend": "",
      "working": "",
      "city": "Скопје"
   },
   {
      "address": "ул. 'Аџево' бб, Драчево, Скопје",
      "email": "",
      "id": 4200,
      "image": "https://www.stb.com.mk/media/1079/no_image.jpg",
      "lat": "41.9398",
      "lon": "21.514",
      "manager": "",
      "name": "КАМ Маркет Драчево",
      "phone": "",
      "weekend": "",
      "working": "",
      "city": "Скопје"
   },
   {
      "address": "бул. Јане Сандански 71А, Скопје",
      "email": "",
      "id": 4192,
      "image": "https://www.stb.com.mk/media/1079/no_image.jpg",
      "lat": "41.9859",
      "lon": "21.4665",
      "manager": "",
      "name": "Капитол Мол",
      "phone": "",
      "weekend": "",
      "working": "",
      "city": "Скопје"
   },
   {
      "address": "11 Октомври бр. 25, Скопје",
      "email": "",
      "id": 4214,
      "image": "https://www.stb.com.mk/media/1090/qbemacedoniaf7d13ef79e965b5e7242ea65c03eb6c1.jpg",
      "lat": "41.9895",
      "lon": "21.4363",
      "manager": "",
      "name": "КЈУБИ Македонија",
      "phone": "",
      "weekend": "",
      "working": "",
      "city": "Скопје"
   },
   {
      "address": "ТЦ - Лисиче бул. 12-та Македонска бригада бр. 13а",
      "email": "",
      "id": 4205,
      "image": "https://www.stb.com.mk/media/1526/atm-novo-lisice-2018.jpg",
      "lat": "41.9746",
      "lon": "21.4721",
      "manager": "",
      "name": "Лисиче Т.Ц.- Елида Маркет",
      "phone": "",
      "weekend": "",
      "working": "",
      "city": "13а"
   },
   {
      "address": "Ул.”Орце Николов” бр.188, 1000, Скопје",
      "email": "",
      "id": 4203,
      "image": "https://www.stb.com.mk/media/1079/no_image.jpg",
      "lat": "42.0063",
      "lon": "21.4069",
      "manager": "",
      "name": "Мега Фешн - Орце Николов",
      "phone": "",
      "weekend": "",
      "working": "",
      "city": "Скопје"
   },
   {
      "address": "Радишанска бр. 4, Скопје",
      "email": "",
      "id": 4207,
      "image": "https://www.stb.com.mk/media/1091/radishani1562ad66085b42eb6d67d6e2a72ed04b.jpg",
      "lat": "42.0562",
      "lon": "21.4515",
      "manager": "",
      "name": "Радишани",
      "phone": "",
      "weekend": "",
      "working": "",
      "city": "Скопје"
   },
   {
      "address": "ул.Мито Хаџивасилев бб, ТЦ Рамстор, Скопје",
      "email": "",
      "id": 4208,
      "image": "https://www.stb.com.mk/media/1094/ramstoremallc81d496b41fc6e0a5f93f30bafd0a760.jpg",
      "lat": "41.9921",
      "lon": "21.4268",
      "manager": "",
      "name": "Рамстор",
      "phone": "",
      "weekend": "",
      "working": "",
      "city": "Скопје"
   },
   {
      "address": "бул. Даме Груев бр.1, Скопје",
      "email": "",
      "id": 4194,
      "image": "https://www.stb.com.mk/media/1079/no_image.jpg",
      "lat": "41.9923",
      "lon": "21.4339",
      "manager": "",
      "name": "Рамстор Family Shop",
      "phone": "",
      "weekend": "",
      "working": "",
      "city": "Скопје"
   },
   {
      "address": "Љубљанска 4, Скопје",
      "email": "",
      "id": 4176,
      "image": "https://www.stb.com.mk/media/1101/skopjecitymall2040bba897320d93051ead7f049509da.jpg",
      "lat": "42.0045",
      "lon": "21.3915",
      "manager": "",
      "name": "Скопје Сити Мол",
      "phone": "",
      "weekend": "",
      "working": "",
      "city": "Скопје"
   },
   {
      "address": "ул. Првомајска  бр. 66, Скопје",
      "email": "",
      "id": 4198,
      "image": "https://www.stb.com.mk/media/1109/supertinexprvomajska9b21ae7682da466a504f6b5ffba2c3ec.jpg",
      "lat": "41.9749",
      "lon": "21.4534",
      "manager": "",
      "name": "Супер Тинекс Првомајска",
      "phone": "",
      "weekend": "",
      "working": "",
      "city": "Скопје"
   },
   {
      "address": "ул. Московска бр. 22, Скопје",
      "email": "",
      "id": 4210,
      "image": "https://www.stb.com.mk/media/1111/taftalidze-spmarket714dc1f5a692186c9d1241d03411db88.jpg",
      "lat": "42.001",
      "lon": "21.39",
      "manager": "",
      "name": "Тафталиџе - СП Маркет",
      "phone": "",
      "weekend": "",
      "working": "",
      "city": "Скопје"
   },
   {
      "address": "ул. Перо Наков бр. 108, Скопје",
      "email": "",
      "id": 4197,
      "image": "https://www.stb.com.mk/media/1079/no_image.jpg",
      "lat": "41.9964",
      "lon": "21.4778",
      "manager": "",
      "name": "Тинекс Годел",
      "phone": "",
      "weekend": "",
      "working": "",
      "city": "Скопје"
   },
   {
      "address": "ул. ”Скупи” бр. 28, Скопје",
      "email": "",
      "id": 4188,
      "image": "https://www.stb.com.mk/media/1079/no_image.jpg",
      "lat": "42.0138",
      "lon": "21.3916",
      "manager": "",
      "name": "Тинекс Злокуќани",
      "phone": "",
      "weekend": "",
      "working": "",
      "city": "Скопје"
   },
   {
      "address": "Тинекс - Раде Кончар, Скопје",
      "email": "",
      "id": 4184,
      "image": "https://www.stb.com.mk/media/1118/vasidoraprilepno_image.jpg",
      "lat": "41.9822",
      "lon": "21.4531",
      "manager": "",
      "name": "Тинекс Раде Кончар",
      "phone": "",
      "weekend": "",
      "working": "",
      "city": "Скопје"
   },
   {
      "address": "ул. Новопроектирана бб, Скопје",
      "email": "",
      "id": 4196,
      "image": "https://www.stb.com.mk/media/1079/no_image.jpg",
      "lat": "42.0018",
      "lon": "21.3766",
      "manager": "",
      "name": "Тинекс Хром",
      "phone": "",
      "weekend": "",
      "working": "",
      "city": "Скопје"
   },
   {
      "address": "ул. Ѓорче Петров бр.7, Скопје",
      "email": "",
      "id": 4193,
      "image": "https://www.stb.com.mk/media/1079/no_image.jpg",
      "lat": "42.0067",
      "lon": "21.3615",
      "manager": "",
      "name": "Тобако - Скопје",
      "phone": "",
      "weekend": "",
      "working": "",
      "city": "Скопје"
   },
   {
      "address": "ул. Васил Ѓоргов бр. 16, Скопје",
      "email": "",
      "id": 4185,
      "image": "https://www.stb.com.mk/media/1118/vasidoraprilepno_image.jpg",
      "lat": "41.9928",
      "lon": "21.4197",
      "manager": "",
      "name": "ТЦ Зебра",
      "phone": "",
      "weekend": "",
      "working": "",
      "city": "Скопје"
   },
   {
      "address": "ул. Сарајска бр. 2, Скопје",
      "email": "",
      "id": 4187,
      "image": "https://www.stb.com.mk/media/1079/no_image.jpg",
      "lat": "42.0036",
      "lon": "21.3318",
      "manager": "",
      "name": "ТЦ Сарај",
      "phone": "",
      "weekend": "",
      "working": "",
      "city": "Скопје"
   },
   {
      "address": "Јани Лукровски 5, Скопје",
      "email": "",
      "id": 4225,
      "image": "https://www.stb.com.mk/media/1016/avtokomandabranch2b2a146ae032dd1de04a522f397480db.jpg",
      "lat": "42.003",
      "lon": "21.4642",
      "manager": "",
      "name": "Филијала Автокоманда",
      "phone": "",
      "weekend": "",
      "working": "",
      "city": "Скопје"
   },
   {
      "address": "1000 Скопје, бул. Јане Сандански блок 3, ламела 6",
      "email": "",
      "id": 4220,
      "image": "https://www.stb.com.mk/media/1011/aerodrombranch26ed8218ef1a05ad5847b774916625f4.jpg",
      "lat": "41.9883",
      "lon": "21.4553",
      "manager": "",
      "name": "Филијала Аеродром",
      "phone": "",
      "weekend": "",
      "working": "",
      "city": "6"
   },
   {
      "address": "Партизанска бр. 70б, Скопје",
      "email": "",
      "id": 4175,
      "image": "https://www.stb.com.mk/media/1012/aluminkabranchc186d03e132779e894ee5dd08abd347a.jpg",
      "lat": "42.0037",
      "lon": "21.3946",
      "manager": "",
      "name": "Филијала Алуминка ",
      "phone": "",
      "weekend": "",
      "working": "",
      "city": "Скопје"
   },
   {
      "address": "Решад Џафер бр. 13, Скопје",
      "email": "",
      "id": 4226,
      "image": "https://www.stb.com.mk/media/1023/bitpazarçranch790b152ba672d7dbb4cb3157e59ce343.jpg",
      "lat": "42.0014",
      "lon": "21.4396",
      "manager": "",
      "name": "Филијала Бит Пазар",
      "phone": "",
      "weekend": "",
      "working": "",
      "city": "Скопје"
   },
   {
      "address": "Ул. Бутелска бр.4, Скопје",
      "email": "",
      "id": 4209,
      "image": "https://www.stb.com.mk/media/1026/butelbranch49320a1b13041c63a1b4a03bfa7279dc.jpg",
      "lat": "42.0304",
      "lon": "21.4445",
      "manager": "",
      "name": "Филијала Бутел",
      "phone": "",
      "weekend": "",
      "working": "",
      "city": "Скопје"
   },
   {
      "address": "ТЦ Буњаковец, Партизански одреди бр.17 лок.25, Скопје",
      "email": "",
      "id": 4227,
      "image": "https://www.stb.com.mk/media/1024/bunjakovecbranch50b8739c202914d3794fb325c5690cce.jpg",
      "lat": "41.999",
      "lon": "21.4201",
      "manager": "",
      "name": "Филијала Буњаковец",
      "phone": "",
      "weekend": "",
      "working": "",
      "city": "Скопје"
   },
   {
      "address": "Бул. Кочо Рацин бр 1, Скопје",
      "email": "",
      "id": 4222,
      "image": "https://www.stb.com.mk/media/1123/verocenterbranchbcb4121dc87aca1c49f269a56971ac12.jpg",
      "lat": "41.9929",
      "lon": "21.4417",
      "manager": "",
      "name": "Филијала ВЕРО Центар",
      "phone": "",
      "weekend": "",
      "working": "",
      "city": "Скопје"
   },
   {
      "address": "Капиштец, Т. Гологанов бр.76, Скопје",
      "email": "",
      "id": 4228,
      "image": "https://www.stb.com.mk/media/1124/veropulosbranch18e0e3d6fd1375c52aa12d5f7f61220c.jpg",
      "lat": "41.9972",
      "lon": "21.4047",
      "manager": "",
      "name": "Филијала Веропулос",
      "phone": "",
      "weekend": "",
      "working": "",
      "city": "Скопје"
   },
   {
      "address": "Ул. Јадранска Магистрала бр. 114, Скопје",
      "email": "",
      "id": 4199,
      "image": "https://www.stb.com.mk/media/1127/vizbegovobranch43d0390dd2f6fd14cbbd587a9c708ddd.jpg",
      "lat": "42.0436",
      "lon": "21.3914",
      "manager": "",
      "name": "Филијала Визбегово",
      "phone": "",
      "weekend": "",
      "working": "",
      "city": "Скопје"
   },
   {
      "address": "11 Октомври бр. 7, Скопје",
      "email": "",
      "id": 4229,
      "image": "https://www.stb.com.mk/media/1100/shoppingcenter-groundfloorbranchbdf556cd5e953c03edee630f225d6257.jpg",
      "lat": "41.995",
      "lon": "21.4336",
      "manager": "",
      "name": "Филијала ГТЦ приземје",
      "phone": "",
      "weekend": "",
      "working": "",
      "city": "Скопје"
   },
   {
      "address": "Иван Хаџиниколов бр. 95, Драчево, Скопје",
      "email": "",
      "id": 4230,
      "image": "https://www.stb.com.mk/media/1037/drachevobranch52738_dracevo_filijala.jpg",
      "lat": "41.9388",
      "lon": "21.5177",
      "manager": "",
      "name": "Филијала Драчево ",
      "phone": "",
      "weekend": "",
      "working": "",
      "city": "Скопје"
   },
   {
      "address": "ул. 2, бр. 4, Населба Илинден, Скопје",
      "email": "",
      "id": 4213,
      "image": "https://www.stb.com.mk/media/1048/ilindene81bf08f7df4e3b7a3881942bc229d7d.jpg",
      "lat": "41.9962",
      "lon": "21.57",
      "manager": "",
      "name": "Филијала Илинден ",
      "phone": "",
      "weekend": "",
      "working": "",
      "city": "Скопје"
   },
   {
      "address": "Народен фронт, ТЦ Беверли Хилс",
      "email": "",
      "id": 4232,
      "image": "https://www.stb.com.mk/media/1052/kapishtecbranch895d6cc66d63e30a41fa21468548d371.jpg",
      "lat": "41.9939",
      "lon": "21.4163",
      "manager": "",
      "name": "Филијала Капиштец ",
      "phone": "",
      "weekend": "",
      "working": "",
      "city": "Хилс"
   },
   {
      "address": "Божидар Аџија бр. 1, Скопје",
      "email": "",
      "id": 4233,
      "image": "https://www.stb.com.mk/media/1058/kiselavodabranch72736_kisela_voda_atm.jpg",
      "lat": "41.981",
      "lon": "21.4405",
      "manager": "",
      "name": "Филијала Кисела вода ",
      "phone": "",
      "weekend": "",
      "working": "",
      "city": "Скопје"
   },
   {
      "address": "Мајка Тереза бр. 20, Скопје",
      "email": "",
      "id": 4189,
      "image": "https://www.stb.com.mk/media/1059/klinikibranchca7bfb6ba45a47253a6dabcc5cc1d1cb.jpg",
      "lat": "41.9902",
      "lon": "21.4207",
      "manager": "",
      "name": "Филијала Клиники ",
      "phone": "",
      "weekend": "",
      "working": "",
      "city": "Скопје"
   },
   {
      "address": "Св. Кирил и Методиј бр. 4, Скопје",
      "email": "",
      "id": 4234,
      "image": "https://www.stb.com.mk/media/1072/makpetrolbranch6b7fc8fb009676a73e619a5a2db40b84.jpg",
      "lat": "41.9903",
      "lon": "21.4316",
      "manager": "",
      "name": "Филијала Макпетрол ",
      "phone": "",
      "weekend": "",
      "working": "",
      "city": "Скопје"
   },
   {
      "address": "Македонија бр.16, Скопје",
      "email": "",
      "id": 4174,
      "image": "https://www.stb.com.mk/media/1070/majkaterezabranch41569706e277f45f79671b7744e827af.jpg",
      "lat": "41.994",
      "lon": "21.4309",
      "manager": "",
      "name": "Филијала Мајка Тереза ",
      "phone": "",
      "weekend": "",
      "working": "",
      "city": "Скопје"
   },
   {
      "address": "Благоја Стевковски бр. 49, Скопје",
      "email": "",
      "id": 4179,
      "image": "https://www.stb.com.mk/media/1069/madzaribranch30146b3333b32a000ee0409872cae6de.jpg",
      "lat": "41.996513",
      "lon": "21.498542",
      "manager": "",
      "name": "Филијала Маџари",
      "phone": "",
      "weekend": "",
      "working": "",
      "city": "Скопје"
   },
   {
      "address": "11 Октомври бр.7, Скопје",
      "email": "",
      "id": 4182,
      "image": "https://www.stb.com.mk/media/1076/mladinabranch61bb29280fc5549bf77afeef5508bfba.jpg",
      "lat": "41.9956",
      "lon": "21.4336",
      "manager": "",
      "name": "Филијала Младина",
      "phone": "",
      "weekend": "",
      "working": "",
      "city": "Скопје"
   },
   {
      "address": "Видое Смилевски Бато бр. 55/1, Скопје",
      "email": "",
      "id": 4235,
      "image": "https://www.stb.com.mk/media/1080/novolisicebranchc2f7fdcfc6a29c085cc1f42f93568380.jpg",
      "lat": "41.9812",
      "lon": "21.4753",
      "manager": "",
      "name": "Филијала Ново Лисиче ",
      "phone": "",
      "weekend": "",
      "working": "",
      "city": "Скопје"
   },
   {
      "address": "Ѓ. Петров бр.1 згр.Б1 влез 1 лок 12, Скопје",
      "email": "",
      "id": 4236,
      "image": "https://www.stb.com.mk/media/1087/portavlaebranch862cbedac4d538524971dfdb4496a081.jpg",
      "lat": "42.008",
      "lon": "21.3686",
      "manager": "",
      "name": "Филијала Порта Влае ",
      "phone": "",
      "weekend": "",
      "working": "",
      "city": "Скопје"
   },
   {
      "address": "Христо Татарчев бр.43 А локал 12  и локал  13",
      "email": "",
      "id": 4202,
      "image": "https://www.stb.com.mk/media/1079/no_image.jpg",
      "lat": "41.9758",
      "lon": "21.4435",
      "manager": "",
      "name": "Филијала Расадник ",
      "phone": "",
      "weekend": "",
      "working": "",
      "city": "13"
   },
   {
      "address": "Ул. 1613 бр.2",
      "email": "",
      "id": 4201,
      "image": "https://www.stb.com.mk/media/1118/vasidoraprilepno_image.jpg",
      "lat": "41.9812",
      "lon": "21.4706",
      "manager": "",
      "name": "Филијала Реонски Центар Аеродром ",
      "phone": "",
      "weekend": "",
      "working": "",
      "city": "бр.2"
   },
   {
      "address": "ТЦ Васил Главинов бб, Скопје",
      "email": "",
      "id": 4237,
      "image": "https://www.stb.com.mk/media/1115/topanskopolebranch42689_topansko_pole_atm.jpg",
      "lat": "42.0171",
      "lon": "21.4341",
      "manager": "",
      "name": "Филијала Топанско поле",
      "phone": "",
      "weekend": "",
      "working": "",
      "city": "Скопје"
   },
   {
      "address": "Антон Попов бр. 1, Скопје",
      "email": "",
      "id": 4190,
      "image": "https://www.stb.com.mk/media/1142/crnicebranch355a9c3e107269d2996a306ec902b98e.jpg",
      "lat": "41.9877",
      "lon": "21.4327",
      "manager": "",
      "name": "Филијала Црниче ",
      "phone": "",
      "weekend": "",
      "working": "",
      "city": "Скопје"
   }]