[
   {
      "address": "Маршал Тито бб, Берово",
      "closed": false,
      "email": "biljana.nikolovska@stb.com.mk",
      "id": 4340,
      "image": "https://www.stb.com.mk/media/1132/berovobranch72d4329623aba72874b2088b4365d417.jpg",
      "lat": "41.7057",
      "lon": "22.857",
      "manager": "Билјана Николовска Маневски",
      "name": "Берово",
      "phone": "(033) 471-502; (033) 470-768",
      "weekend": "",
      "working": "08:30 до 16:00",
      "city": "Берово"
   },
   {
      "address": "Широк сокак 62, Битола",
      "closed": false,
      "email": "goran.madjaroski@stb.com.mk",
      "id": 4353,
      "image": "https://www.stb.com.mk/media/1133/bitolabranch5392e1886a599dd565bdb48d6d26a427.jpg",
      "lat": "41.0273",
      "lon": "21.3364",
      "manager": "Горан Маџароски",
      "name": "Битола",
      "phone": "(047) 222-247;",
      "weekend": "",
      "working": "08:30 до 16:00",
      "city": "Битола"
   },
   {
      "address": "Ул.Васко Карангелевски бр. 41, Битола",
      "closed": false,
      "email": "irina.gagaceva@stb.com.mk",
      "id": 4380,
      "image": "https://www.stb.com.mk/media/1134/bitolaverobranch0954fc913f1f182b59bbcfc2db604045.jpg",
      "lat": "41.028",
      "lon": "21.3139",
      "manager": "Ирина Гагачева",
      "name": "Битола Веро",
      "phone": "(047) 259-622; (047) 259-623",
      "weekend": "",
      "working": "08:30 до 16:00",
      "city": "Битола"
   },
   {
      "address": "Маршал Тито бр. 85, Богданци",
      "closed": false,
      "email": "aleksandar.todorov@stb.com.mk",
      "id": 4360,
      "image": "https://www.stb.com.mk/media/1136/bogdancibranch79a1af6af10920ccb0d70eef341e87ad.jpg",
      "lat": "41.2034",
      "lon": "22.5756",
      "manager": "Александар Тодоров",
      "name": "Богданци",
      "phone": "(034) 221-118",
      "weekend": "",
      "working": "08:30 до 16:00",
      "city": "Богданци"
   },
   {
      "address": "6-ти Ноември бр. 42, Валандово",
      "closed": false,
      "email": "saso.karakamcev@stb.com.mk",
      "id": 4368,
      "image": "https://www.stb.com.mk/media/1189/valandovobrancha8edcc1320745d956a767ded1fd35233.jpg",
      "lat": "41.3169",
      "lon": "22.561",
      "manager": "Сашо Каракамчев / Весна Ангеличкова",
      "name": "Валандово",
      "phone": "(034) 383-310",
      "weekend": "",
      "working": "08:30 до 16:00",
      "city": "Валандово"
   },
   {
      "address": "8-ми Септември бр. 67, Велес",
      "closed": false,
      "email": "tatjana.arsova@stb.com.mk",
      "id": 4372,
      "image": "https://www.stb.com.mk/media/1190/velesbranchd1c4e0189a01e581f4aeb23bda602122.jpg",
      "lat": "41.7148",
      "lon": "21.784",
      "manager": "Татјана Арсова",
      "name": "Велес",
      "phone": "(043) 234-223; (043) 235-199",
      "weekend": "",
      "working": "08:30 до 16:00",
      "city": "Велес"
   },
   {
      "address": "М.Тито бр. 6, Виница",
      "closed": false,
      "email": "petar.dimitrovski@stb.com.mk",
      "id": 4338,
      "image": "https://www.stb.com.mk/media/1193/vinicabranch183181b131073bc04d74358a16af82a6.jpg",
      "lat": "41.8825",
      "lon": "22.5048",
      "manager": "Петар Димитровски",
      "name": "Виница",
      "phone": "(033) 361-756; (033) 363-133",
      "weekend": "",
      "working": "08:30 до 16:00",
      "city": "Виница"
   },
   {
      "address": "Плоштад Слобода бб, 1480 Гевгелија",
      "closed": false,
      "email": "kristina.nikolovska@stb.com.mk",
      "id": 4352,
      "image": "https://www.stb.com.mk/media/1147/gevgelijabranchd9f4206f341a7c674edf5b86f80e8ce7.jpg",
      "lat": "41.1403",
      "lon": "22.5016",
      "manager": "Кристина Николовска",
      "name": "Гевгелија",
      "phone": "(034) 210-010; (034) 210-015",
      "weekend": "",
      "working": "08:30 до 16:00",
      "city": "Гевгелија"
   },
   {
      "address": "Мајор Чеде Филиповски бр.156, Гостивар",
      "closed": false,
      "email": "abdirahman.ebibi@stb.com.mk",
      "id": 4362,
      "image": "https://www.stb.com.mk/media/2417/gostivar-filijala.jpg",
      "lat": "41.792767",
      "lon": "20.906499",
      "manager": "Абдирахман Ебиби",
      "name": " Гостивар",
      "phone": "042/215-404; 042/213-527",
      "weekend": "",
      "working": "08:30 до 16:00",
      "city": "Гостивар"
   },
   {
      "address": "Вељко Влаховиќ бр. 146, Дебар",
      "closed": false,
      "email": "roland.pahumi@stb.com.mk",
      "id": 4355,
      "image": "https://www.stb.com.mk/media/1143/debarbranch67f55195c63111418a29dbad8dd0a8d2.jpg",
      "lat": "41.522",
      "lon": "20.5267",
      "manager": "Роланд Пахуми",
      "name": "Дебар",
      "phone": "(046) 831-148",
      "weekend": "",
      "working": "08:30 до 16:00",
      "city": "Дебар"
   },
   {
      "address": "Орце Николов бб, Делчево",
      "closed": false,
      "email": "biljana.nikolovska@stb.com.mk",
      "id": 4331,
      "image": "https://www.stb.com.mk/media/1144/delcevobranch6f499be165e095c9dd17361e6ef5320b.jpg",
      "lat": "41.9641",
      "lon": "22.7776",
      "manager": "Билјана Николовска Маневски",
      "name": "Делчево",
      "phone": "(033) 411-743; (033) 411-454",
      "weekend": "",
      "working": "08:30 до 16:00",
      "city": "Делчево"
   },
   {
      "address": "Ул.Битолска бб, Демир Хисар",
      "closed": false,
      "email": "marija.bubakovska@stb.com.mk",
      "id": 4371,
      "image": "https://www.stb.com.mk/media/1145/demirhisarbranch02d0b6dd9984ecaf45d9752bfb5e0d1b.jpg",
      "lat": "41.2195",
      "lon": "21.2039",
      "manager": "Марија Бубаќоска",
      "name": "Демир Хисар",
      "phone": " (047) 275-850",
      "weekend": "",
      "working": "08:30 до 16:00",
      "city": "Хисар"
   },
   {
      "address": "Илинденска бр. 1, Кавадарци",
      "closed": false,
      "email": "seizova@stb.com.mk",
      "id": 4351,
      "image": "https://www.stb.com.mk/media/1157/kavadarcibranch3d4cbb770b0f948f01eb53026af70fb2.jpg",
      "lat": "41.4338",
      "lon": "22.0117",
      "manager": "Мирјана Сеизова",
      "name": "Кавадарци",
      "phone": "(043) 412-257",
      "weekend": "",
      "working": "08:30 до 16:00",
      "city": "Кавадарци"
   },
   {
      "address": "Булевар Ослободување бр. 9, Кичево",
      "closed": false,
      "email": "besnik.ismaili@stb.com.mk",
      "id": 4356,
      "image": "https://www.stb.com.mk/media/1158/kicevobranche5652f1dccc770f5c0f1b02e53a94ba9.jpg",
      "lat": "41.5126",
      "lon": "20.962",
      "manager": "Бесник Исмаили",
      "name": "Кичево",
      "phone": "(045) 221-347",
      "weekend": "",
      "working": "08:30 до 16:00",
      "city": "Кичево"
   },
   {
      "address": "М. Тито бр. 44, Кочани",
      "closed": false,
      "email": "krusareva@stb.com.mk",
      "id": 4367,
      "image": "https://www.stb.com.mk/media/1161/kocanibranchbd93e630eae2e12af4411a60cabdf537.jpg",
      "lat": "41.9185",
      "lon": "22.4105",
      "manager": "Симона Крушарева",
      "name": "Кочани",
      "phone": "(033) 272-176; (033) 272-602",
      "weekend": "",
      "working": "08:30 до 16:00",
      "city": "Кочани"
   },
   {
      "address": "Маршал Тито бр. 183, Крива Паланка",
      "closed": false,
      "email": "hristina.mladenovska@stb.com.mk",
      "id": 4376,
      "image": "https://www.stb.com.mk/media/1162/krivapalankabranch4fc5d3a4905f85732ab1ed30a191b138.jpg",
      "lat": "42.2057",
      "lon": "22.3344",
      "manager": "Христина Младеновска",
      "name": "Крива Паланка",
      "phone": "(031) 371-101; (031) 373-101",
      "weekend": "",
      "working": "08:30 до 16:00",
      "city": "Паланка"
   },
   {
      "address": "Благо Целев бр. 3 , Крушево",
      "closed": false,
      "email": "mihajlo.kardula@stb.com.mk",
      "id": 4354,
      "image": "https://www.stb.com.mk/media/1163/krusevobranchb7a98a4a7fe6cfc8d0a719404c091732.jpg",
      "lat": "41.3678",
      "lon": "21.2484",
      "manager": "Михајло Кардула",
      "name": "Крушево",
      "phone": "(048) 477-130",
      "weekend": "",
      "working": "08:30 до 16:00",
      "city": "Крушево"
   },
   {
      "address": "Партизанска бр. 2, Куманово",
      "closed": false,
      "email": "martin.davitkovski@stb.com.mk",
      "id": 4375,
      "image": "https://www.stb.com.mk/media/1164/kumanovobranch6c324ba2ad4a2bc8735fada1abeecc3a.jpg",
      "lat": "42.1357",
      "lon": "21.7207",
      "manager": "Мартин Давитковски",
      "name": "Куманово",
      "phone": "(031) 437-580;  (031) 430-105",
      "weekend": "",
      "working": "08:30 до 16:00",
      "city": "Куманово"
   },
   {
      "address": "Маршал Тито, М. Каменица",
      "closed": false,
      "email": "biljana.nikolovska@stb.com.mk",
      "id": 4366,
      "image": "https://www.stb.com.mk/media/1167/makedonskakamenicabranchabc6b174b3fcd16bdf544d57f9aa83a0.jpg",
      "lat": "42.0223",
      "lon": "22.5901",
      "manager": "Биљана Николовска Маневски",
      "name": "Македонска Каменица",
      "phone": "(033) 431-415",
      "weekend": "",
      "working": "08:30 до 16:00",
      "city": "Каменица"
   },
   {
      "address": "Јане Сандански бр. 2, Неготино",
      "closed": false,
      "email": "sladjana.trajkova@stb.com.mk",
      "id": 4344,
      "image": "https://www.stb.com.mk/media/1170/negotinobranchfca021d51d4953c558128137518542dc.jpg",
      "lat": "41.4837",
      "lon": "22.0906",
      "manager": "Слаѓана Трајкова",
      "name": "Неготино",
      "phone": "(043) 634-706",
      "weekend": "",
      "working": "08:30 до 16:00",
      "city": "Неготино"
   },
   {
      "address": "Димитар Влахов бр. 2 , Охрид",
      "closed": false,
      "email": "dejan.blazeski@stb.com.mk",
      "id": 4358,
      "image": "https://www.stb.com.mk/media/3322/20221014_194807.jpg",
      "lat": "41.114404",
      "lon": "20.800905",
      "manager": "Дејан Блажески",
      "name": "Охрид",
      "phone": "(046) 260-277",
      "weekend": "",
      "working": "08:30 до 16:00",
      "city": "Охрид"
   },
   {
      "address": "Борис Кидрич бб, Пехчево",
      "closed": false,
      "email": "biljana.nikolovska@stb.com.mk",
      "id": 4379,
      "image": "https://www.stb.com.mk/media/1174/pehcevobranch5df2af8d3d2a564a64ec9c7499861ead.jpg",
      "lat": "41.762",
      "lon": "22.8853",
      "manager": "Билјана Николовска Маневски",
      "name": "Пехчево",
      "phone": "(033) 441-116",
      "weekend": "",
      "working": "08:30 до 16:00",
      "city": "Пехчево"
   },
   {
      "address": "ул. 'Јоска Јорданоски' бр.1 , Прилеп",
      "closed": false,
      "email": "Katerina.Nebrezanec@stb.com.mk",
      "id": 4373,
      "image": "https://www.stb.com.mk/media/1176/prilepcenterbranch3c851b069a2325eae28c6f07224ecc3f.jpg",
      "lat": "41.3523",
      "lon": "21.5676",
      "manager": "Катерина Небрежанец",
      "name": "Прилеп Центар",
      "phone": "(048) 420 -856; (048) 420-857",
      "weekend": "",
      "working": "08:30 до 16:00",
      "city": "Прилеп"
   },
   {
      "address": "Јаким Спиров бр. 3, Пробиштип",
      "closed": false,
      "email": "probistip@stb.com.mk",
      "id": 4329,
      "image": "https://www.stb.com.mk/media/1177/probistipbranch95e332a9de6de24796b83c761a98fcc3.jpg",
      "lat": "41.9997",
      "lon": "22.1792",
      "manager": "",
      "name": "Пробиштип",
      "phone": "(032) 484-228; (032) 483-129",
      "weekend": "",
      "working": "08:30 до 16:00",
      "city": "Пробиштип"
   },
   {
      "address": "22 Октомври 42a, Радовиш",
      "closed": false,
      "email": "vesna.angelickova@stb.com.mk",
      "id": 4342,
      "image": "https://www.stb.com.mk/media/1810/img_20190530_134253.jpg",
      "lat": "41.6372",
      "lon": "22.4626",
      "manager": "Весна Ангеличкова",
      "name": "Радовиш",
      "phone": "(032) 635-065; (032) 635-512",
      "weekend": "",
      "working": "08:30 до 16:00",
      "city": "Радовиш"
   },
   {
      "address": "Маршал Тито бр. 15, Ресен",
      "closed": false,
      "email": "stevco.dimeski@stb.com.mk",
      "id": 4374,
      "image": "https://www.stb.com.mk/media/1181/resenbranch8913d4321c3d7842996ba5acf97c3007.jpg",
      "lat": "41.0904",
      "lon": "21.0129",
      "manager": "Стевчо Димески",
      "name": "Ресен",
      "phone": "(047) 451-108; (047) 451-147",
      "weekend": "",
      "working": "08:30 до 16:00",
      "city": "Ресен"
   },
   {
      "address": "М. Тито бр. 1, Св. Николе",
      "closed": false,
      "email": "lence.steriova@stb.com.mk",
      "id": 4377,
      "image": "https://www.stb.com.mk/media/1182/stnikolebranchcc643e0e82264f1eb8308f62fa2e4e93.jpg",
      "lat": "41.8634",
      "lon": "21.9419",
      "manager": "Ленче Штериова",
      "name": "Св. Николе",
      "phone": "(033) 443-917; (032) 443-944",
      "weekend": "",
      "working": "08:30 до 16:00",
      "city": "Николе"
   },
   {
      "address": "Кеј 13-ти Ноември, Скопје",
      "closed": true,
      "email": "i-bankstore@stb.com.mk",
      "id": 4382,
      "image": "https://www.stb.com.mk/media/1152/i-bankstorebranch9bcd3b24032e598a3073fa73c1b5b5ea.jpg",
      "lat": "41.9959",
      "lon": "21.4332",
      "manager": "",
      "name": "I-bank store",
      "phone": "(02) 3295-285",
      "weekend": "",
      "working": "00:00 до 00:00",
      "city": "Скопје"
   },
   {
      "address": "Јани Лукровски бр. 5, Скопје",
      "closed": false,
      "email": "aleksandar.zarkov@stb.com.mk",
      "id": 4364,
      "image": "https://www.stb.com.mk/media/1131/avtokomandabranch7bbd345fd952e19267bd16ac7121ac20.jpg",
      "lat": "42.003",
      "lon": "21.4642",
      "manager": "Александар Зарков",
      "name": "Автокоманда",
      "phone": "(02) 3171-366; (02) 3171-393",
      "weekend": "",
      "working": "08:30 до 16:00",
      "city": "Скопје"
   },
   {
      "address": "Бул. Јане Сандански, блок 3, ламела 6, Скопје",
      "closed": false,
      "email": "daliborka.janevska@stb.com.mk",
      "id": 4363,
      "image": "https://www.stb.com.mk/media/1129/aerodrombranch669e24f3fa56f2a79ac8c3a1cd4f6e10.jpg",
      "lat": "41.9883",
      "lon": "21.4553",
      "manager": "Далиборка Јаневска",
      "name": "Аеродром",
      "phone": "(02) 2465-053; (02) 2465-027",
      "weekend": "",
      "working": "08:30 до 16:00",
      "city": "Скопје"
   },
   {
      "address": "Партизанска бр. 70 б, Скопје",
      "closed": false,
      "email": "elena.cvejovskapetrovska@stb.com.mk",
      "id": 4365,
      "image": "https://www.stb.com.mk/media/1130/aluminkabranche8f19a3485d34b8bbf82205a2cae8265.jpg",
      "lat": "42.0037",
      "lon": "21.3946",
      "manager": "Елена Цвејовска Петровска",
      "name": "Алуминка",
      "phone": "(02) 3074-338; (02) 3079-542",
      "weekend": "",
      "working": "08:30 до 16:00",
      "city": "Скопје"
   },
   {
      "address": "Решад Џафер бр. 13, Скопје",
      "closed": false,
      "email": "bitpazar@stb.com.mk",
      "id": 4319,
      "image": "https://www.stb.com.mk/media/2779/bitpazarbranch2813b1a7461740c6eb636f5cd91757d3.jpg",
      "lat": "42.0014",
      "lon": "21.4396",
      "manager": "",
      "name": "Битпазар",
      "phone": "(02) 3231-128; (02) 3231-108",
      "weekend": "",
      "working": "08:30 до 16:00",
      "city": "Скопје"
   },
   {
      "address": "Ул. Бутелска бр. 4, Скопје",
      "closed": false,
      "email": "katerina.lazova@stb.com.mk",
      "id": 4321,
      "image": "https://www.stb.com.mk/media/1139/butelbranchdf4031aa725408e4fcea6b1d2fef4d08.jpg",
      "lat": "42.0304",
      "lon": "21.4445",
      "manager": "Катерина Лазова",
      "name": "Бутел",
      "phone": "(02) 2658-101; (02) 2658-102",
      "weekend": "",
      "working": "08:30 до 16:00",
      "city": "Скопје"
   },
   {
      "address": "Партизански одреди бр. 17, лок. 25, Скопје",
      "closed": false,
      "email": "elena.stevanovska@stb.com.mk",
      "id": 4320,
      "image": "https://www.stb.com.mk/media/1138/bunjakovecbranch98bb95a33ad0c268b0d9ac4e2eee6426.jpg",
      "lat": "41.999",
      "lon": "21.4201",
      "manager": "Елена Стевановска",
      "name": "Буњаковец",
      "phone": "(02) 3225-865; (02) 3233-391",
      "weekend": "",
      "working": "08:30 до 16:00",
      "city": "Скопје"
   },
   {
      "address": "Бул. Кочо Рацин бр. 1, Скопје",
      "closed": false,
      "email": "veropulos@stb.com.mk",
      "id": 4323,
      "image": "https://www.stb.com.mk/media/1191/verocenterbranch432ec463642579b027e3aae7bc674a8c.jpg",
      "lat": "41.9929",
      "lon": "21.4417",
      "manager": "",
      "name": "Веро Центар",
      "phone": "(02) 3222-289; (02) 3222-581",
      "weekend": "",
      "working": "08:30 до 16:00",
      "city": "Скопје"
   },
   {
      "address": "Т. Гологанов бр. 76, Скопје",
      "closed": false,
      "email": "ivana.ignjatovska2@stb.com.mk",
      "id": 4322,
      "image": "https://www.stb.com.mk/media/1192/veropulosbranchb503555debf69e32329b8abf9728c303.jpg",
      "lat": "41.9972",
      "lon": "21.4047",
      "manager": "Ивана Игњатовска ",
      "name": "Веропулос",
      "phone": "(02) 3068-719; (02) 3074-978",
      "weekend": "",
      "working": "08:30 до 16:00",
      "city": "Скопје"
   },
   {
      "address": "Ул. Јадранска Магистрала бр. 114, Скопје",
      "closed": false,
      "email": "dragan.panovski@stb.com.mk",
      "id": 4324,
      "image": "https://www.stb.com.mk/media/1194/vizbegovobranch20fc0881a592a20a497fd49f8beb83eb.jpg",
      "lat": "42.0435",
      "lon": "21.3914",
      "manager": "Драган Пановски",
      "name": "Визбегово",
      "phone": "(02) 2655-543; (02) 2655-542",
      "weekend": "",
      "working": "08:30 до 16:00",
      "city": "Скопје"
   },
   {
      "address": "11 Октомври бр. 7, Скопје",
      "closed": false,
      "email": "saso.kezarovski@stb.com.mk",
      "id": 4346,
      "image": "https://www.stb.com.mk/media/1151/gtcgroundfloorbranch35dd270443e20eff34ebf185cb3ca072.jpg",
      "lat": "41.995",
      "lon": "21.4336",
      "manager": "Сашо Кежаровски",
      "name": "ГТЦ Приземје",
      "phone": "(02) 3295-368; (02) 3295-331",
      "weekend": "",
      "working": "08:30 до 16:00",
      "city": "Скопје"
   },
   {
      "address": "Иван Хаџиниколов бр. 95, Скопје",
      "closed": false,
      "email": "dracevo@stb.com.mk",
      "id": 4326,
      "image": "https://www.stb.com.mk/media/1146/dracevobranch6d1b5e3ca75e3bf3389fc50ce0259dc6.jpg",
      "lat": "41.9388",
      "lon": "21.5177",
      "manager": "",
      "name": "Драчево",
      "phone": "(02) 2792-153; (02) 2792-136",
      "weekend": "",
      "working": "08:30 до 16:00",
      "city": "Скопје"
   },
   {
      "address": "ул. 2, бр. 4, Населба Илинден, Скопје",
      "closed": false,
      "email": "darko.kapsarov@stb.com.mk",
      "id": 4327,
      "image": "https://www.stb.com.mk/media/1153/ilindenbranchf874c673dc0d0e4469eb3263c1223aa4.jpg",
      "lat": "41.9962",
      "lon": "21.57",
      "manager": "Darko Kapsarov",
      "name": "Илинден",
      "phone": "(02) 2573-662; (02) 2573-663",
      "weekend": "",
      "working": "08:30 до 16:00",
      "city": "Скопје"
   },
   {
      "address": "Народен фронт, трг. центар Беверли Хилс, парцела 82, дел 7, зграда 1, влез 01, Скопје",
      "closed": false,
      "email": "maja.janevkrstev@stb.com.mk",
      "id": 4330,
      "image": "https://www.stb.com.mk/media/1155/kapistecbranchccbbc8bf40b14220a8c63ecc8709329d.jpg",
      "lat": "41.9939",
      "lon": "21.4163",
      "manager": "Маја Јаневска Крстевска",
      "name": "Капиштец",
      "phone": "(02) 3221-927; (02) 3221-924",
      "weekend": "",
      "working": "08:30 до 16:00",
      "city": "Скопје"
   },
   {
      "address": "Божидар Аџија бр. 1, Скопје",
      "closed": false,
      "email": "elena.stojmirova@stb.com.mk",
      "id": 4332,
      "image": "https://www.stb.com.mk/media/1159/kiselavodabranch573a3d754617cbff147317c80e1984ae.jpg",
      "lat": "41.981",
      "lon": "21.4405",
      "manager": "Елена Стојмирова",
      "name": "Кисела Вода",
      "phone": "(02) 2770-370; (02) 2770-355",
      "weekend": "",
      "working": "08:30 до 16:00",
      "city": "Скопје"
   },
   {
      "address": "Мајка Тереза бр. 20, Скопје",
      "closed": false,
      "email": "natasha.petrovska@stb.com.mk",
      "id": 4333,
      "image": "https://www.stb.com.mk/media/1160/klinikibranch077288d18cd308d044c51a50c6a390f6.jpg",
      "lat": "41.9902",
      "lon": "21.4207",
      "manager": "Наташа Петровска",
      "name": "Клиники",
      "phone": "(02) 3223-047; (02) 3226-904",
      "weekend": "",
      "working": "08:30 до 16:00",
      "city": "Скопје"
   },
   {
      "address": "Св. Кирил и Методиј бр. 4, Скопје",
      "closed": false,
      "email": "bogdan.bogojevski@stb.com.mk",
      "id": 4335,
      "image": "https://www.stb.com.mk/media/1168/makpetrolbranch3c843aaa50230ecce7513369b639bc40.jpg",
      "lat": "41.9903",
      "lon": "21.4316",
      "manager": "Богдан Богојевски ",
      "name": "Макпетрол",
      "phone": "(02) 3112-904; (02) 3213-141",
      "weekend": "",
      "working": "08:30 до 16:00",
      "city": "Скопје"
   },
   {
      "address": "Благоја Стевковски бр. 49, Скопје",
      "closed": false,
      "email": "ema.dimanovska@stb.com.mk",
      "id": 4337,
      "image": "https://www.stb.com.mk/media/1165/madzaribranchefa868867467fa53790ae42e991b4de5.jpg",
      "lat": "41.996513",
      "lon": "21.498542",
      "manager": "Ема Димановска",
      "name": "Маџари",
      "phone": "(02) 2535-619; (02) 2535-620",
      "weekend": "",
      "working": "08:30 до 16:00",
      "city": "Скопје"
   },
   {
      "address": "11 Октомври бр. 7, Скопје",
      "closed": false,
      "email": "dejan.jancevski@stb.com.mk",
      "id": 4339,
      "image": "https://www.stb.com.mk/media/1169/mladinabranchd5e84daeea7d388fff0af6b506e011b9.jpg",
      "lat": "41.9955",
      "lon": "21.4335",
      "manager": "Дејан Јанчевски",
      "name": "Младина",
      "phone": "(02) 3295-343; (02) 3295-429",
      "weekend": "",
      "working": "08:30 до 16:00",
      "city": "Скопје"
   },
   {
      "address": "Бул. Видое Смилевски-Бато бр. 55/1, Скопје",
      "closed": false,
      "email": "hristina.todorovska@stb.com.mk",
      "id": 4341,
      "image": "https://www.stb.com.mk/media/1171/novolisicebranch75889dbb5a8c1bde6893424b37b31203.jpg",
      "lat": "41.9812",
      "lon": "21.4753",
      "manager": "Христина Тодоровска",
      "name": "Ново Лисиче",
      "phone": "(02) 2435-732; (02) 2435-734",
      "weekend": "",
      "working": "08:30 до 16:00",
      "city": "Скопје"
   },
   {
      "address": "Ѓ. Петров, бр. 1, згр. Б1, влез 1, локал 12, Скопје",
      "closed": false,
      "email": "irena.cicevska@stb.com.mk",
      "id": 4343,
      "image": "https://www.stb.com.mk/media/1175/portavlaebranchdf597047b792088212efdd4e59390320.jpg",
      "lat": "42.008",
      "lon": "21.3686",
      "manager": "Ирена Чичевска",
      "name": "Порта Влае",
      "phone": "(02) 2040-632; (02) 2045-681",
      "weekend": "",
      "working": "08:30 до 16:00",
      "city": "Скопје"
   },
   {
      "address": "Христо Татарчев бр.43 А локал 12  и локал  13",
      "closed": false,
      "email": "sanja.radojeva@stb.com.mk",
      "id": 4384,
      "image": "https://www.stb.com.mk/media/1179/rasadnikbranchc5cdbeccf6b5e1290e21b6ebd3e63506.jpg",
      "lat": "41.9758",
      "lon": "21.4435",
      "manager": "Сања Радојева",
      "name": "Расадник",
      "phone": "02/2774-185; 02/2719-311",
      "weekend": "",
      "working": "08:30 до 16:00",
      "city": "13"
   },
   {
      "address": "ул.1613 бр.2, Ново Лисиче 2",
      "closed": false,
      "email": "Bojan.mangaroski@stb.com.mk",
      "id": 4383,
      "image": "https://www.stb.com.mk/media/1180/reonskicentaraerodrombranch3f0c0c72dea7ecb1e664c14794032f38.jpg",
      "lat": "41.9813",
      "lon": "21.4705",
      "manager": "Бојан Мангароски",
      "name": "Реонски Центар Аеродром",
      "phone": "02/2442-733; 02/2401-207",
      "weekend": "",
      "working": "08:30 до 16:00",
      "city": "2"
   },
   {
      "address": "Тр. Цент. ул. Георги Попхристов бр. 4, локал 3, Скопје",
      "closed": false,
      "email": "biljana.uceta@stb.com.mk",
      "id": 4345,
      "image": "https://www.stb.com.mk/media/1188/topanskopolebranch7b49a3fdc33d4be413956d1a8acdd05d.jpg",
      "lat": "42.0171",
      "lon": "21.4341",
      "manager": "Билјана Учета",
      "name": "Топанско Поле",
      "phone": "(02) 2613-995; (02) 2614-018",
      "weekend": "",
      "working": "08:30 до 16:00",
      "city": "Скопје"
   },
   {
      "address": "Антон Попов бр. 1, Скопје",
      "closed": false,
      "email": "jelica.ristoska@stb.com.mk",
      "id": 4348,
      "image": "https://www.stb.com.mk/media/1142/crnicebranch355a9c3e107269d2996a306ec902b98e.jpg",
      "lat": "41.9877",
      "lon": "21.4327",
      "manager": "Јелица Чаловска",
      "name": "Црниче",
      "phone": "(02) 3224-081; (02) 3224-085",
      "weekend": "",
      "working": "08:30 до 16:00",
      "city": "Скопје"
   },
   {
      "address": "Христијан Тодоровски Карпош бр. 5, Скопје",
      "closed": false,
      "email": "Imer.Ologu@stb.com.mk",
      "id": 4349,
      "image": "https://www.stb.com.mk/media/1140/cairbranchb158f520b761584b5c71f0fb2e3efd7b.jpg",
      "lat": "42.0206",
      "lon": "21.448",
      "manager": "Имер Ологу",
      "name": "Чаир",
      "phone": "(02) 2614-404; (02) 2614-405",
      "weekend": "",
      "working": "08:30 до 16:00",
      "city": "Скопје"
   },
   {
      "address": "Јужноморавски бригади бр. 3, Скопје",
      "closed": false,
      "email": "snezana.anastasova@stb.com.mk",
      "id": 4350,
      "image": "https://www.stb.com.mk/media/1141/centobranch78348380b8bcba706a7d1a607005ec7c.jpg",
      "lat": "42.0065",
      "lon": "21.5025",
      "manager": "Снежана Анастасова",
      "name": "Ченто",
      "phone": "(02) 2521-850; (02) 2521-851",
      "weekend": "",
      "working": "08:30 до 16:00",
      "city": "Скопје"
   },
   {
      "address": "Ѓорче Петров бр. 54, Скопје",
      "closed": false,
      "email": "elena.domazetovska@stb.com.mk",
      "id": 4325,
      "image": "https://www.stb.com.mk/media/1148/gjorcepetrovbranch5c8f3195f4e5f1604c607af8da9596ee.jpg",
      "lat": "42.0069",
      "lon": "21.3592",
      "manager": "Елена Домазетовска Тапанџиоска",
      "name": "Ѓорче Петров",
      "phone": "(02) 2051-055; (02) 2051-066",
      "weekend": "",
      "working": "08:30 до 16:00",
      "city": "Скопје"
   },
   {
      "address": "Бул. Јане Сандански бр. 24, Скопје",
      "closed": false,
      "email": "Bojana.TrajanovskaDimitrievska@stb.com.mk",
      "id": 4328,
      "image": "https://www.stb.com.mk/media/1154/janesandanskibranchd88b2d709cf6f2e51330a0b3ba3fa44c.jpg",
      "lat": "41.9865",
      "lon": "21.4637",
      "manager": "Бојана Трајановска Димитриевска",
      "name": "Јане Сандански",
      "phone": "(02) 3166-575; (02) 2452-181",
      "weekend": "",
      "working": "08:30 до 16:00",
      "city": "Скопје"
   },
   {
      "address": "М. Тито бр. 54, Струга",
      "closed": false,
      "email": "olivera.verusevska@stb.com.mk",
      "id": 4357,
      "image": "https://www.stb.com.mk/media/1184/strugabranchabe1414737042fee400c5ef2aeb22ae0.jpg",
      "lat": "41.1778",
      "lon": "20.6758",
      "manager": "Оливера Верушевска",
      "name": "Струга",
      "phone": "(046) 781-801",
      "weekend": "",
      "working": "08:30 до 16:00",
      "city": "Струга"
   },
   {
      "address": "М. Тито бр. 49, Ново Село",
      "closed": false,
      "email": "zoran.dzotov@stb.com.mk",
      "id": 4378,
      "image": "https://www.stb.com.mk/media/1172/novoselobranch10b65591f17d1e20a0ed9abb88901754.jpg",
      "lat": "41.4141",
      "lon": "22.8786",
      "manager": "Зоран Џотов",
      "name": "Ново Село",
      "phone": "(034) 355-422",
      "weekend": "",
      "working": "08:30 до 16:00",
      "city": "Село"
   },
   {
      "address": "Ленинова бр. 19, Струмица",
      "closed": false,
      "email": "zoran.dzotov@stb.com.mk",
      "id": 4347,
      "image": "https://www.stb.com.mk/media/1185/strumicabranch0da4297f2c74ec1e70e23f12aa5b0ab8.jpg",
      "lat": "41.4394",
      "lon": "22.6386",
      "manager": "Зоран Џотов",
      "name": "Струмица",
      "phone": "(034) 348-410; (034) 348-403",
      "weekend": "",
      "working": "08:30 до 16:00",
      "city": "Струмица"
   },
   {
      "address": "Илирија бр. 32, Тетово",
      "closed": false,
      "email": "Arljinda.HasaniSinani@stb.com.mk",
      "id": 4361,
      "image": "https://www.stb.com.mk/media/1186/tetovobranch390500c866285a0a1baa908960973f30.jpg",
      "lat": "42.008",
      "lon": "20.9756",
      "manager": "Арлјинда Хасани Синани",
      "name": "Тетово",
      "phone": "(044) 332-664",
      "weekend": "",
      "working": "08:30 до 16:00",
      "city": "Тетово"
   },
   {
      "address": "29 Ноември бр.1, Тетово",
      "closed": false,
      "email": "arljinda.hasanisinani@stb.com.mk",
      "id": 4370,
      "image": "https://www.stb.com.mk/media/1187/tetovonewbranch1d7164d1c96a9dc84bb55987533c8f6d.jpg",
      "lat": "42.0063",
      "lon": "20.9702",
      "manager": "Арлјинда Хасани Синани",
      "name": "Тетово Нова",
      "phone": "044/341-462;",
      "weekend": "",
      "working": "08:30 до 16:00",
      "city": "Тетово."
   },
   {
      "address": "Јосиф Ковачев бр. 8, Штип",
      "closed": false,
      "email": "mitko.demirovski@stb.com.mk",
      "id": 4336,
      "image": "https://www.stb.com.mk/media/1183/stipbranch4da5d1105aa674e33aa795914e27cac9.jpg",
      "lat": "41.7381",
      "lon": "22.1949",
      "manager": "Митко Демировски",
      "name": "Штип",
      "phone": "(032) 393-266",
      "weekend": "",
      "working": "08:30 до 16:00",
      "city": "Штип"
   }
]